[
    { "lat": 47.67075910584363, "lng": -122.31515402681624, "name": "Sword lily", "date": "July 16, 2024", "desc": "The ancient Greeks believed this flower grew wherever anyone was slain by a sword.", "img": "assets/imgs/swordlily.png", "color": "red" },
    { "lat": 47.669534054398504, "lng": -122.31443712786836, "name": "Sword lily", "date": "July 3, 2024", "desc": "Also known as gladiolus flowers, the name derives from the Latin word \"gladius,\" translating to sword.", "img": "assets/imgs/swordlily2.png", "color": "orange" },
    { "lat": 47.66627093037119, "lng": -122.312918406971, "name": "Oregon grape", "date": "July 3, 2024", "desc": "Native American tribes of the Pacific Northwest have used preparations from Oregon grape roots to treat stomach problems, hemorrhages, arthritis, and tuberculosis.", "img": "assets/imgs/oregongrape.png", "color": "blue" },
    { "lat": 47.596598947552145, "lng": -122.32733792025753, "name": "Mophead hydrangea", "date": "June 25, 2024", "desc": "These hydrangeas can change color based on the pH level of the soil they are grown in. In acidic soils, they tend to produce blue flowers due to the presence of aluminum ions, while in alkaline soils, they produce pink flowers.", "img": "assets/imgs/mophead.png", "color": "blue" },
    { "lat": 47.66759285152948, "lng": -122.31535255702143, "name": "Chinese rose", "date": "June 25, 2024", "desc": "The flowers of the Chinese rose are edible and are sometimes used to make herbal teas, jams, and syrups. In some regions of Asia, the petals are used as a garnish or flavoring in salads and desserts.", "img": "assets/imgs/chineserose.png", "color": "orange" },
    { "lat": 47.66966635905383, "lng": -122.31531035987722, "name": "Aaron's beard", "date": "June 23, 2024", "desc": "Named after the biblical figure Aaron, brother of Moses, this plant is a popular choice as a low-maintenance ground cover in landscapes and gardens.", "img": "assets/imgs/aaron.png", "color": "yellow" },
    { "lat": 47.66938655829783, "lng": -122.31539240922332, "name": "Common daisy", "date": "July 17, 2024", "desc": "The common daisy has a unique trait known as nyctinasty, where its petals close at night and reopen in the morning. This behavior protects the flower's reproductive organs from cold temperatures and dew, and it also aids in pollen transfer by attracting early morning pollinators when the petals open again.", "img": "assets/imgs/daisy.png", "color": "white" },
    { "lat": 47.66937524778018, "lng": -122.31557080753772, "name": "Lacecap hydrangea", "date": "July 17, 2024", "desc": "Lacecap hydrangeas differ from mopheads due to their unique flower structure. The central cluster of tiny, fertile flowers is surrounded by larger, showy, sterile flowers. This gives them their distinctive lace-like appearance.", "img": "assets/imgs/lacecap2.png", "color": "blue" },
    { "lat": 47.66187844686903, "lng": -122.30940292315144, "name": "Mophead hydrangea", "date": "July 17, 2024", "desc": "These pink flowers are a result of alkaline soil with pH levels above 6.5!", "img": "assets/imgs/mophead2.png", "color": "pink" },
    { "lat": 47.6621589274589, "lng": -122.30945207176806, "name": "Mophead hydrangea", "date": "July 17, 2024", "desc": "In the Victorian era, hydrangeas were sometimes seen as symbols of boastfulness due to their large, extravagant blooms, which could be interpreted as a display of vanity.", "img": "assets/imgs/mophead3.png", "color": "blue" },
    { "lat": 47.66897861052591, "lng": -122.31430283083725, "name": "Chinese rose", "date": "May 23, 2024", "desc": "The Chinese rose is an evergreen shrub that can grow up to 10 feet (3 meters) tall in ideal conditions. Its glossy, dark green leaves provide an attractive backdrop to its bright flowers.", "img": "assets/imgs/chineserose2.png", "color": "pink" },
    { "lat": 47.66716150255265, "lng": -122.31534077352912, "name": "Orange ball buddleja", "date": "May 16, 2024", "desc": "Native to Chile and Argentina, particularly in the Andean regions, Buddleja globosa, also known as the Orange Ball Tree, can withstand extreme cold and heat, making it a hardy plant able to thrive in both frosty winters and scorching summers.", "img": "assets/imgs/orangeball.png", "color": "orange" },
    { "lat": 47.67490405157724, "lng": -122.31631041923994, "name": "Mophead hydrangea", "date": "July 22, 2024", "desc": "Right in front of Whole Foods üëç", "img": "assets/imgs/mophead4.png", "color": "blue" },
    { "lat": 47.666504476096726, "lng": -122.31561104991012, "name": "California poppy", "date": "July 20, 2024", "desc": "The California poppy, the state flower of California, is exceptionally drought-tolerant, making it perfectly adapted to thrive in the state's arid conditions.", "img": "assets/imgs/calipoppy.png", "color": "orange" },
    { "lat": 47.666067557525466, "lng": -122.31537431097199, "name": "Jerusalem sage", "date": "July 20, 2024", "desc": "Jerusalem sage produces an abundance of nectar-rich flowers that attract various pollinators. The tubular flowers are especially appealing to bees and butterflies, providing them with a valuable food source.", "img": "assets/imgs/jerusalem.png", "color": "yellow" },
    { "lat": 47.65792034929872, "lng": -122.30796332013206, "name": "Pearly everlasting", "date": "July 22, 2024", "desc": "The plant is dioecious, meaning the pollen-producing (male) and seed-producing (female) flowers are born on separate plants.", "img": "assets/imgs/pearly.png", "color": "white" },
    { "lat": 47.654769243228785, "lng": -122.3129223233459, "name": "Clematis", "date": "July 22, 2024", "desc": "Clematis is known as the queen of climbers. This easy-to-grow plant has vining stems that eagerly climb fences, garden structures, and other plants, creating a vibrant tapestry of summer color.", "img": "assets/imgs/clematis.png", "color": "purple" },
    { "lat": 47.65504389417268, "lng": -122.31158616908054, "name": "New York aster", "date": "July 22, 2024", "desc": "The scientific name for the New York aster is Symphyotrichum novi-belgii. The name \"novi-belgii\" refers to New Belgium, one of the first names for the region of the northeastern United States now known as New York, where the plant is native.", "img": "assets/imgs/newyork.png", "color": "purple" },
    { "lat": 47.653935381863555, "lng": -122.31385785859493, "name": "Strawberry tree", "date": "July 22, 2024", "desc": "The tree is well known for its red-orange fruits, the arbutus berry, which bear some resemblance to the strawberry, hence the common name strawberry tree.", "img": "assets/imgs/strawberry.png", "color": "green" },
    { "lat": 47.662269695411545, "lng": -122.31096152212201, "name": "Stonecrop", "date": "July 22, 2024", "desc": "Stonecrops are known for their water-retaining abilities. They are succulents, which means they have thick, fleshy leaves that store water, making them highly drought-tolerant.", "img": "assets/imgs/stonecrop.png", "color": "green" },
    { "lat": 47.66603185660863, "lng": -122.31093578109396, "name": "Mophead hydrangea", "date": "July 22, 2024", "desc": "Symbolizing grace, gratitude, and understanding, hydrangeas have deep cultural roots in Japan and China, where they have been cultivated and appreciated for centuries.", "img": "assets/imgs/mophead5.png", "color": "purple" }
]